City Name,Longitude,Latitude,Max Temperature,Humidity,Cloud Coverage,Wind Speed,City Country,Date Time
Cabo San Lucas,-109.91,22.89,91.0,58,20,14.99,MX,1594675620
Puerto Ayora,-90.35,-0.74,70.0,90,56,1.01,EC,1594675748
Carnarvon,113.63,-24.87,60.8,93,75,4.7,AU,1594675748
Kawhia,174.82,-38.07,57.0,97,100,5.99,NZ,1594675749
Torbay,-52.73,47.67,77.0,78,20,17.22,CA,1594675749
Mataura,168.86,-46.19,39.0,83,94,3.0,NZ,1594675749
Soe,124.28,-9.86,61.79,99,26,6.04,ID,1594675749
Cape Town,18.42,-33.93,55.0,62,75,6.93,ZA,1594675675
Guiratinga,-53.76,-16.35,82.74,40,64,2.42,BR,1594675750
Port Elizabeth,25.57,-33.92,55.4,54,0,13.87,ZA,1594675750
Coari,-63.14,-4.08,84.74,73,10,0.96,BR,1594675750
Gardelegen,11.4,52.53,61.0,69,24,4.85,DE,1594675750
Port Lincoln,135.87,-34.73,51.96,88,0,9.31,AU,1594675750
Severo-Kuril'sk,156.12,50.68,49.19,87,100,5.55,RU,1594675751
Albany,-73.97,42.6,87.01,42,15,10.11,US,1594675751
Lethbridge,-112.82,49.7,68.0,40,75,9.17,CA,1594675554
Gangāpur,76.72,26.48,88.12,63,23,9.8,IN,1594675751
Chui,-53.46,-33.7,43.5,62,1,11.39,UY,1594675752
Trairi,-39.27,-3.28,78.1,65,96,10.63,BR,1594675752
Tiksi,128.87,71.69,47.91,93,99,14.61,RU,1594675752
Ponta do Sol,-17.1,32.67,71.6,64,20,11.41,PT,1594675752
Port Alfred,26.89,-33.59,57.42,44,0,26.87,ZA,1594675752
Busselton,115.33,-33.65,52.0,73,82,18.48,AU,1594675711
Rikitea,-134.97,-23.12,72.88,85,47,13.47,PF,1594675753
Ushuaia,-68.3,-54.8,33.8,80,75,21.92,AR,1594675696
Gijang,129.21,35.24,68.0,88,90,6.93,KR,1594675753
Sorong,131.25,-0.88,76.53,88,100,8.23,ID,1594675754
Correntina,-44.64,-13.34,75.2,35,1,2.39,BR,1594675754
Port Macquarie,152.92,-31.43,54.0,68,100,3.0,AU,1594675677
Tasiilaq,-37.64,65.61,42.8,81,95,4.7,GL,1594675755
Grand Gaube,57.66,-20.01,71.01,79,2,5.01,MU,1594675755
Mar del Plata,-57.56,-38.0,44.6,56,40,14.99,AR,1594675755
Jamestown,-79.24,42.1,73.99,56,20,12.75,US,1594675562
Coahuayana Viejo,-103.68,18.73,84.2,70,40,11.41,MX,1594675756
Ribeira Grande,-28.7,38.52,71.6,73,40,16.11,PT,1594675756
Longyearbyen,15.64,78.22,48.2,76,75,4.7,SJ,1594675756
Punta Arenas,-70.92,-53.15,35.6,84,100,5.82,CL,1594675659
Fortuna,-124.16,40.6,66.0,72,40,16.11,US,1594675756
Korla,86.15,41.76,78.01,53,64,5.01,CN,1594675757
Hermanus,19.23,-34.42,48.0,79,99,1.01,ZA,1594675757
Provideniya,-173.3,64.38,50.0,71,92,4.47,RU,1594675757
Bredasdorp,20.04,-34.53,48.2,87,86,16.11,ZA,1594675757
Port Shepstone,30.45,-30.74,66.29,52,0,26.26,ZA,1594675758
Vaini,-175.2,-21.2,73.4,69,20,12.75,TO,1594675758
Praia da Vitória,-27.07,38.73,71.6,68,75,12.33,PT,1594675758
Atuona,-139.03,-9.8,79.54,77,24,19.35,PF,1594675758
Jurilovca,28.87,44.77,63.0,51,0,11.41,RO,1594675759
Nikolskoye,30.79,59.7,53.6,81,20,6.71,RU,1594675759
Yerbogachën,108.01,61.28,59.31,79,26,1.92,RU,1594675759
Novikovo,37.89,51.15,64.65,95,100,1.81,RU,1594675759
Ende,121.66,-8.84,74.28,78,3,1.57,ID,1594675759
Yellowknife,-114.35,62.46,59.0,100,90,13.87,CA,1594675486
Shelton,-73.09,41.32,89.01,51,1,12.75,US,1594675729
Kemijärvi,27.43,66.71,52.61,92,100,6.93,FI,1594675760
Waipawa,175.52,-41.41,39.99,100,0,4.7,NZ,1594675760
Mossamedes,12.15,-15.2,63.41,82,0,0.31,AO,1594675760
Hobart,147.33,-42.88,42.8,81,75,4.7,AU,1594675685
Kandrian,149.55,-6.22,76.96,87,93,4.47,PG,1594675761
Butaritari,172.79,3.07,81.95,75,72,3.15,KI,1594675761
Cayenne,-52.33,4.93,86.0,66,75,5.82,GF,1594675761
Kaitangata,169.85,-46.28,43.0,81,66,8.01,NZ,1594675761
Bosaso,49.18,11.28,93.52,42,70,23.17,SO,1594675762
Kavieng,150.8,-2.57,82.0,75,100,10.0,PG,1594675762
Thompson,-97.86,55.74,60.8,93,75,5.82,CA,1594675735
Dikson,80.55,73.51,39.33,98,100,14.0,RU,1594675762
Vilyuysk,121.62,63.76,65.57,70,8,2.86,RU,1594675763
Sitka,-135.33,57.05,57.2,71,90,4.7,US,1594675763
Lompoc,-120.46,34.64,66.99,68,5,13.87,US,1594675697
Lucapa,20.74,-8.42,70.86,37,62,3.58,AO,1594675764
Grafton,-71.69,42.21,82.4,51,1,8.05,US,1594675664
Mahon,4.27,39.89,73.4,78,0,9.17,ES,1594675764
Souillac,57.52,-20.52,69.8,88,20,8.05,MU,1594675764
Bonavista,-53.11,48.65,66.11,80,10,18.7,CA,1594675765
Marzuq,46.47,14.4,84.0,47,90,9.6,YE,1594675765
Sokoni,39.55,-6.43,71.6,88,5,2.24,TZ,1594675765
Geraldton,114.6,-28.77,64.4,82,90,19.46,AU,1594675765
George Town,100.34,5.41,78.8,100,20,5.35,MY,1594675766
San Patricio,-104.7,19.22,91.4,66,20,11.41,MX,1594675766
Qaanaaq,-69.36,77.48,45.81,62,0,9.08,GL,1594675766
Port-Gentil,8.78,-0.72,75.2,88,90,15.3,GA,1594675766
San Cristobal,-72.22,7.77,89.6,43,40,17.22,VE,1594675766
Gizo Government Station,156.84,-8.1,82.36,74,100,7.58,SB,1594675767
Tcholliré,14.17,8.4,75.07,87,100,4.0,CM,1594675767
Kruisfontein,24.73,-34.0,48.76,52,26,14.61,ZA,1594675767
Aklavik,-135.01,68.22,64.4,59,40,3.36,CA,1594675767
Darhan,105.92,49.49,61.77,79,3,1.34,MN,1594675767
Leningradskiy,178.42,69.38,38.26,86,100,8.32,RU,1594675768
Amazar,120.88,53.86,68.52,64,96,1.66,RU,1594675768
New Norfolk,147.06,-42.78,41.0,83,4,5.01,AU,1594675768
Ahipara,173.17,-35.17,56.25,86,78,4.68,NZ,1594675768
Chipinge,32.62,-20.19,49.69,64,0,1.95,ZW,1594675769
Hilo,-155.09,19.73,82.4,61,20,6.93,US,1594675769
Kalianget,113.93,-7.05,80.2,81,1,12.1,ID,1594675769
Bilma,12.92,18.69,90.93,25,2,3.71,NE,1594675769
Warrington,-2.58,53.39,60.8,82,75,8.05,GB,1594675769
Verkhnevilyuysk,120.32,63.45,64.15,77,14,2.17,RU,1594675770
Umm Kaddadah,26.69,13.6,91.18,31,0,13.98,SD,1594675770
Pimentel,-79.93,-6.84,68.0,68,35,14.99,PE,1594675770
Hithadhoo,73.08,-0.6,84.29,76,67,9.71,MV,1594675770
Lavrentiya,-171.0,65.58,45.93,76,88,6.46,RU,1594675770
Clyde River,-68.59,70.47,57.2,54,40,4.7,CA,1594675771
Karatau,70.47,43.17,72.34,33,94,5.48,KZ,1594675771
Kahului,-156.47,20.89,87.8,43,40,18.34,US,1594675771
São Filipe,-24.5,14.9,78.46,83,60,5.32,CV,1594675771
Kuandian,124.78,40.73,63.09,94,100,1.12,CN,1594675771
Jalu,21.55,29.03,78.76,58,0,14.92,LY,1594675772
Cockburn Town,-71.14,21.46,83.77,82,0,15.01,TC,1594675772
Mildura,142.15,-34.2,39.2,100,0,5.82,AU,1594675733
Kapaa,-159.32,22.08,82.4,69,20,17.22,US,1594675772
Salalah,54.09,17.02,82.4,94,90,6.93,OM,1594675772
Korem,39.52,12.51,64.18,61,89,1.32,ET,1594675773
Gejiu,103.16,23.31,55.22,100,97,1.34,CN,1594675773
Jaguaquara,-39.97,-13.53,64.74,91,59,3.65,BR,1594675773
Bluff,168.33,-46.6,39.0,83,89,3.0,NZ,1594675774
Castro,-50.01,-24.79,63.3,82,2,5.12,BR,1594675774
Shingū,135.98,33.73,72.79,94,100,3.24,JP,1594675774
Arraial do Cabo,-42.03,-22.97,82.4,78,0,0.76,BR,1594675774
Ilulissat,-51.1,69.22,46.4,75,99,3.36,GL,1594675775
Itarema,-39.92,-2.92,77.94,71,58,14.2,BR,1594675775
Port Hedland,118.57,-20.32,57.2,47,79,9.17,AU,1594675775
Saint-Philippe,55.77,-21.36,68.0,68,43,6.93,RE,1594675776
Manado,124.85,1.49,75.2,94,40,1.12,ID,1594675776
Ca Mau,105.15,9.18,78.33,93,100,3.6,VN,1594675776
Pevek,170.31,69.7,43.39,69,86,2.84,RU,1594675777
Pochinki,44.87,54.7,68.13,90,80,2.04,RU,1594675777
Steinbach am Taunus,8.57,50.17,75.0,51,78,1.12,DE,1594675778
Zambezi,23.1,-13.54,58.66,41,0,4.18,ZM,1594675778
Kununurra,128.73,-15.77,60.8,38,0,6.93,AU,1594675778
Manta,-80.73,-0.95,74.71,77,67,15.73,EC,1594675778
Guerrero Negro,-114.06,27.98,85.53,34,2,18.81,MX,1594675779
Goderich,-81.72,43.75,71.01,74,1,16.69,CA,1594675779
Vysokogornyy,139.15,50.12,56.52,91,58,2.59,RU,1594675779
Bengkulu,102.27,-3.8,75.09,88,93,4.09,ID,1594675780
Luwuk,122.79,-0.95,77.16,81,97,4.85,ID,1594675780
Opelousas,-92.08,30.53,96.01,63,75,3.36,US,1594675560
Kargasok,80.86,59.06,61.21,91,56,6.96,RU,1594675780
Broken Hill,141.43,-31.95,37.4,93,0,2.24,AU,1594675780
Faanui,-151.75,-16.48,79.03,81,100,16.17,PF,1594675781
Scarborough,-0.4,54.28,59.0,80,56,1.99,GB,1594675781
Tuktoyaktuk,-133.04,69.45,62.6,55,20,3.36,CA,1594675781
Oruzgan,66.0,32.83,66.4,26,0,3.04,AF,1594675781
Seymchan,152.43,62.88,62.29,86,100,5.01,RU,1594675782
Buraidah,43.98,26.33,98.6,19,20,9.17,SA,1594675782
Nouakchott,-15.98,18.09,84.2,70,0,17.22,MR,1594675783
Bambous Virieux,57.76,-20.34,71.01,88,20,8.05,MU,1594675783
Ponta Delgada,-25.67,37.73,69.8,73,20,11.41,PT,1594675783
Tongling,117.78,30.95,71.06,91,100,2.21,CN,1594675783
Barrow,-156.79,71.29,37.4,78,90,12.75,US,1594675783
Henties Bay,14.28,-22.12,55.0,89,0,1.01,NA,1594675784
Harper,-7.72,4.38,76.05,82,100,12.08,LR,1594675784
Avarua,-159.78,-21.21,71.6,64,93,9.17,CK,1594675784
Acarí,-74.62,-15.43,73.47,43,0,6.69,PE,1594675784
Tezu,96.17,27.92,77.54,71,100,2.82,IN,1594675785
Bethel,-73.41,41.37,87.01,48,1,8.05,US,1594675785
Turan,108.22,16.07,78.8,88,20,3.36,VN,1594675785
Wokha,94.27,26.1,61.5,100,100,2.04,IN,1594675785
Codrington,141.97,-38.27,41.14,91,7,2.37,AU,1594675786
Bongaigaon,90.56,26.48,78.69,88,100,1.5,IN,1594675786
Libreville,9.45,0.39,77.0,88,40,6.93,GA,1594675694
Santa Fe,-60.7,-31.63,59.0,41,0,4.0,AR,1594675672
Santa Maria,-53.81,-29.68,59.0,44,0,4.7,BR,1594675759
Ancud,-73.82,-41.87,41.0,80,75,2.24,CL,1594675786
Paraopeba,-44.4,-19.28,78.8,47,0,8.05,BR,1594675787
Vuktyl,57.31,63.86,50.16,78,36,4.07,RU,1594675787
Kamenka,42.77,51.32,73.99,59,39,7.0,RU,1594675787
Luau,22.22,-10.71,65.12,32,6,7.4,AO,1594675787
Launceston,147.17,-41.45,41.0,93,90,6.93,AU,1594675732
Fasa,53.65,28.94,73.4,20,0,3.62,IR,1594675654
Puerto Escondido,-97.07,15.85,86.0,62,20,8.05,MX,1594675788
Aksay,39.87,47.26,71.01,94,40,11.18,RU,1594675788
Kudahuvadhoo,72.89,2.67,84.2,69,44,6.51,MV,1594675788
Jutaí,-68.9,-5.18,84.97,72,98,1.43,BR,1594675788
Mount Gambier,140.77,-37.83,39.2,93,0,3.36,AU,1594675789
Khani,42.96,41.96,69.8,94,75,2.24,GE,1594675789
Hay River,-115.8,60.82,55.4,93,90,24.16,CA,1594675789
Raudeberg,5.14,61.99,55.4,87,75,6.93,NO,1594675789
Seoul,126.98,37.57,64.4,88,90,11.07,KR,1594675789
San Juan,-68.54,-31.54,49.75,48,0,8.59,AR,1594675620
Billings Metropolitan Area,-108.5,45.78,77.0,30,40,17.22,US,1594675608
Penzance,-5.54,50.12,61.0,100,90,14.99,GB,1594675790
Cairns,145.77,-16.92,66.2,37,45,10.29,AU,1594675521
Santa Helena,-45.3,-2.23,76.37,92,97,1.48,BR,1594675694
Yuanping,112.76,38.72,64.42,80,94,0.67,CN,1594675791
Ostrovnoy,39.51,68.05,43.5,87,63,3.09,RU,1594675791
Rafai,23.92,4.95,69.15,96,100,4.12,CF,1594675791
Sinnamary,-52.95,5.38,81.23,77,11,8.7,GF,1594675792
Riverton,-111.94,40.52,90.0,18,1,16.11,US,1594675702
Fuling,107.39,29.7,73.62,90,92,2.91,CN,1594675792
Mahébourg,57.7,-20.41,69.8,88,20,8.05,MU,1594675793
Neiafu,-173.98,-18.65,75.2,78,40,11.41,TO,1594675793
Klaksvík,-6.59,62.23,51.8,100,99,6.93,FO,1594675793
Dunedin,170.5,-45.87,45.0,81,48,8.14,NZ,1594675642
Kichera,110.1,55.94,61.16,81,58,1.14,RU,1594675794
Ballangen,16.83,68.34,55.4,76,40,13.87,NO,1594675794
Coyhaique,-72.07,-45.58,39.2,60,20,6.44,CL,1594675795
Nyrob,56.72,60.73,60.53,70,100,5.41,RU,1594675795
Nishifukuma,130.47,33.77,73.4,94,75,5.82,JP,1594675795
Road Town,-64.62,18.42,86.0,70,75,12.75,VG,1594675795
Arman',150.17,59.7,62.42,66,97,1.52,RU,1594675796
Port Hardy,-127.42,50.7,62.6,72,40,8.05,CA,1594675796
Amalāpuram,82.02,16.58,81.99,82,100,6.04,IN,1594675796
Casa Nova,-41.13,-9.42,84.2,39,20,8.05,BR,1594675797
Makassar,119.42,-5.14,77.0,83,20,3.36,ID,1594675797
Asilah,-6.03,35.47,77.0,61,0,17.22,MA,1594675797
Wieluń,18.57,51.22,57.0,100,0,4.23,PL,1594675798
Saskylakh,114.08,71.92,61.2,60,94,8.99,RU,1594675798
Ouégoa,164.43,-20.35,71.26,77,100,11.18,NC,1594675798
Porto-Novo,2.6,6.5,77.0,88,20,10.29,BJ,1594675783
East London,27.91,-33.02,60.91,41,0,24.7,ZA,1594675799
Prainha,-53.48,-1.8,84.87,65,13,4.12,BR,1594675799
Puerto Carreño,-67.49,6.19,84.2,70,40,5.82,CO,1594675799
Vanimo,141.3,-2.67,76.32,85,51,4.21,PG,1594675800
Seydi,62.91,39.48,82.49,16,0,8.93,TM,1594675800
Karratha,116.85,-20.74,64.31,40,7,8.1,AU,1594675800
Flinders,150.86,-34.58,57.0,83,100,7.0,AU,1594675801
Nan,100.67,18.83,70.68,96,33,0.22,TH,1594675801
Ust-Tsilma,52.15,65.44,51.17,76,28,3.15,RU,1594675801
Bowen,148.23,-20.02,57.0,86,42,3.36,AU,1594675802
Tautira,-149.15,-17.73,80.6,74,75,18.34,PF,1594675802
Sisimiut,-53.67,66.94,45.39,79,62,14.0,GL,1594675802
Nokaneng,22.27,-19.67,49.03,38,0,2.35,BW,1594675803
Katsuura,140.3,35.13,73.0,100,75,4.7,JP,1594675803
College,-147.8,64.86,60.8,77,90,4.7,US,1594675804
Bosilegrad,22.47,42.5,51.64,77,80,4.43,RS,1594675804
Chumikan,135.31,54.72,54.68,89,48,1.43,RU,1594675804
Bariloche,-71.31,-41.15,37.4,59,73,5.82,AR,1594675540
Talnakh,88.4,69.49,53.6,93,75,6.71,RU,1594675805
Marsberg,8.85,51.46,62.6,67,33,4.7,DE,1594675805
Kirakira,161.92,-10.45,82.35,77,100,11.83,SB,1594675806
Kula,28.65,38.55,73.0,42,0,11.01,TR,1594675806
Osmeña,119.93,10.52,82.09,75,100,3.2,PH,1594675806
Ust'-Kut,105.77,56.79,65.05,77,5,1.21,RU,1594675806
Hasaki,140.83,35.73,70.0,100,75,4.7,JP,1594675807
Mayo,-76.51,38.89,89.01,61,1,9.17,US,1594675807
Norman Wells,-126.83,65.28,69.8,52,40,3.36,CA,1594675807
Usinsk,57.53,65.99,48.2,80,49,8.99,RU,1594675807
Manacapuru,-60.62,-3.3,87.8,66,40,2.24,BR,1594675808
Vila do Maio,-23.22,15.13,80.6,83,75,4.7,CV,1594675808
Ouadda,22.4,8.08,67.46,96,100,2.8,CF,1594675808
Srednekolymsk,153.68,67.45,61.63,46,0,8.77,RU,1594675808
Walvis Bay,14.51,-22.96,55.4,82,0,2.24,NA,1594675809
Santa Elena,-80.85,-2.23,70.41,82,37,12.44,EC,1594675809
Methóni,21.7,36.82,79.0,88,20,4.07,GR,1594675810
Jinzhou,121.14,41.11,70.72,83,76,4.09,CN,1594675810
Puerto Peñasco,-113.53,31.32,87.01,80,42,13.0,MX,1594675590
Esperance,121.9,-33.87,51.8,37,0,19.46,AU,1594675810
Khatanga,102.5,71.97,63.75,57,3,12.01,RU,1594675811
Puerto Madryn,-65.04,-42.77,41.34,64,0,16.31,AR,1594675811
Mikkeli,27.27,61.69,54.0,96,99,1.01,FI,1594675811
Olden,6.81,61.84,55.4,76,75,3.36,NO,1594675811
Lahaina,-156.68,20.88,86.0,45,20,11.41,US,1594675623
Houma,-90.72,29.6,98.01,70,40,12.75,US,1594675785
Kutum,24.67,14.2,84.92,25,71,5.68,SD,1594675812
Tocopilla,-70.2,-22.09,61.34,53,3,5.21,CL,1594675813
Nanortalik,-45.24,60.14,44.83,91,100,1.41,GL,1594675813
Narsaq,-46.05,60.92,57.2,71,100,4.7,GL,1594675813
Hong Kong,114.16,22.29,84.0,79,9,11.99,HK,1594675526
São João da Barra,-41.05,-21.64,78.8,61,9,9.48,BR,1594675813
Faya,42.45,18.39,75.2,49,71,6.93,SA,1594675814
Kharp,65.81,66.8,47.19,86,80,9.17,RU,1594675814
Omsukchan,155.8,62.53,65.43,56,72,4.18,RU,1594675814
Mariehamn,19.93,60.1,42.8,100,22,1.12,AX,1594675745
Ibiá,-46.54,-19.48,71.01,62,50,1.01,BR,1594675662
Bam,58.36,29.11,87.15,25,90,6.33,IR,1594675815
Alpena,-83.43,45.06,78.8,39,1,16.11,US,1594675815
Khuzhir,107.34,53.19,56.19,87,0,7.2,RU,1594675815
Alugan,125.48,12.22,81.1,81,72,5.99,PH,1594675816
Okoneshnikovo,75.08,54.84,64.42,93,0,6.26,RU,1594675816
Östersund,14.64,63.18,48.2,76,4,5.82,SE,1594675816
Acapulco de Juárez,-99.89,16.86,87.8,66,5,8.05,MX,1594675816
Kyzyl-Suu,78.0,42.34,56.59,46,90,2.73,KG,1594675817
Novyy Buh,32.52,47.69,59.0,82,75,11.18,UA,1594675817
Cidreira,-50.21,-30.18,51.57,65,65,8.21,BR,1594675817
Nara,135.8,34.69,73.4,100,75,4.7,JP,1594675817
Marquette,-87.63,46.53,75.0,63,84,4.0,US,1594675817
Hue,107.6,16.47,78.8,88,20,2.24,VN,1594675804
Saint-Joseph,55.62,-21.37,68.0,68,19,6.93,RE,1594675818
Padang,100.35,-0.95,77.56,74,100,4.79,ID,1594675818
Berbera,45.01,10.44,92.01,44,72,20.47,SO,1594675818
San Quintín,-115.95,30.48,77.65,55,1,11.88,MX,1594675819
Gainesville,-82.32,29.65,95.0,62,75,8.05,US,1594675819
Chara,118.26,56.91,67.33,69,39,0.67,RU,1594675819
Burnie,145.92,-41.07,42.01,80,0,3.0,AU,1594675819
Vila Velha,-40.29,-20.33,77.0,78,0,10.29,BR,1594675819
Sokoto,5.24,13.06,84.11,53,26,9.01,NG,1594675820
Tual,132.75,-5.67,79.25,82,68,22.44,ID,1594675820
Vila Franca do Campo,-25.43,37.72,68.0,77,20,14.99,PT,1594675820
Asbestovskiy,61.4,57.76,63.77,87,1,2.37,RU,1594675820
Lakhīmpur,80.77,27.95,86.0,73,78,7.9,IN,1594675820
Antofagasta,-70.4,-23.65,59.0,67,0,9.17,CL,1594675733
Dubbo,148.62,-32.25,41.0,100,75,9.17,AU,1594675821
Saint George,-113.58,37.1,108.0,12,1,18.34,US,1594675598
Santo Domingo,-69.99,18.5,89.6,62,40,11.41,DO,1594675821
Rio de Janeiro,-43.21,-22.9,82.4,54,43,11.41,BR,1594675736
NEDJO,35.5,9.5,55.72,94,64,1.83,ET,1594675822
La Ronge,-105.28,55.1,64.4,59,75,13.87,CA,1594675822
Kousséri,15.03,12.08,82.4,74,57,5.82,CM,1594675822
Hirtshals,9.96,57.59,55.99,85,89,1.01,DK,1594675822
Xai-Xai,33.64,-25.05,63.88,41,0,12.64,MZ,1594675823
Pisco,-76.22,-13.7,62.01,87,90,6.93,PE,1594675693
Isangel,169.27,-19.55,69.8,94,40,2.24,VU,1594675824
Ganzhou,115.43,28.82,75.07,91,98,4.38,CN,1594675824
Chokurdakh,147.92,70.63,62.83,46,35,13.69,RU,1594675824
Dali,100.18,25.7,63.12,88,100,3.29,CN,1594675824
Dongsheng,109.98,39.82,68.18,60,98,2.1,CN,1594675825
Airai,125.41,-8.93,54.19,85,21,4.21,TL,1594675825
Peski,38.76,55.22,64.4,93,40,6.71,RU,1594675825
Satka,59.04,55.04,63.5,71,6,3.49,RU,1594675826
Pictou,-62.72,45.68,82.99,73,98,3.0,CA,1594675826
Omboué,9.26,-1.57,72.21,88,50,8.08,GA,1594675826
Okhotsk,143.3,59.38,62.69,67,27,3.09,RU,1594675826
Muros,-9.06,42.78,66.0,75,12,10.0,ES,1594675639
Saint-Pierre,55.48,-21.34,68.0,68,1,6.93,RE,1594675827
Nouadhibou,-17.03,20.93,69.8,88,0,20.8,MR,1594675827
Saint-Augustin,-58.65,51.23,55.4,87,100,15.57,CA,1594675827
Saint Paul Harbor,-152.41,57.79,57.2,76,90,12.75,US,1594675827
Abnūb,31.15,27.27,84.2,39,0,13.87,EG,1594675827
Petropavlovsk-Kamchatskiy,158.65,53.05,51.8,100,90,4.47,RU,1594675828
Ürümqi,87.6,43.8,71.6,43,0,8.95,CN,1594675828
Waingapu,120.26,-9.66,75.97,85,28,14.9,ID,1594675828
Smithers,-127.17,54.78,60.8,51,75,8.05,CA,1594675818
Kaeo,173.78,-35.1,51.01,3,96,3.8,NZ,1594675828
Nowy Dwór Gdański,19.12,54.21,54.0,81,56,4.7,PL,1594675829
Los Llanos de Aridane,-17.92,28.66,71.6,78,75,16.11,ES,1594675829
Jagüey Grande,-81.13,22.53,85.5,74,99,2.68,CU,1594675829
Fort Nelson,-122.7,58.81,71.6,43,75,17.22,CA,1594675829
Kisangani,25.2,0.52,72.46,92,100,1.16,CD,1594675830
Biak,122.88,-0.91,76.05,85,96,5.53,ID,1594675830
Catarman,124.64,12.5,77.56,85,89,3.58,PH,1594675830
Jinchang,102.17,38.5,67.86,51,17,2.01,CN,1594675830
Salinópolis,-47.36,-0.61,79.07,86,31,10.63,BR,1594675831
Cherskiy,161.3,68.75,62.08,59,4,0.45,RU,1594675831
Santiago del Estero,-64.26,-27.8,58.69,41,0,7.58,AR,1594675831
Paamiut,-49.67,61.99,43.77,82,0,3.27,GL,1594675832
Fort-Shevchenko,50.26,44.51,82.42,54,0,5.97,KZ,1594675832
Iqaluit,-68.51,63.75,64.4,36,20,16.11,CA,1594675811
Balikpapan,116.83,-1.27,74.32,95,38,5.37,ID,1594675621
Upernavik,-56.15,72.79,41.11,87,60,10.83,GL,1594675833
Hobyo,48.53,5.35,77.63,76,3,23.71,SO,1594675833
Shakiso,38.92,5.75,58.6,92,76,2.17,ET,1594675833
Mmabatho,25.63,-25.85,42.8,30,0,5.82,ZA,1594675833
Agirish,63.02,61.92,52.72,76,83,6.58,RU,1594675833
Kumul,93.45,42.8,71.83,38,0,8.55,CN,1594675834
Nizhnyaya Tura,59.81,58.63,60.3,80,7,4.23,RU,1594675834
Villiers,28.6,-27.03,41.34,57,0,6.11,ZA,1594675834
Barrhead,-4.39,55.8,55.4,76,90,11.41,GB,1594675604
Oleśnica,17.39,51.21,59.0,76,2,4.7,PL,1594675835
Baruun-Urt,113.28,46.68,65.66,76,100,2.15,MN,1594675835
Tamasane,27.4,-22.42,48.54,46,0,3.87,BW,1594675835
Verāval,70.37,20.9,83.28,83,98,14.16,IN,1594675835
Popondetta,148.25,-8.75,73.89,87,100,2.66,PG,1594675836
Fairbanks,-147.72,64.84,60.8,82,90,6.93,US,1594675614
Berezovyy,135.7,51.67,67.33,74,54,2.28,RU,1594675836
Mandan,-100.89,46.83,87.8,51,1,16.11,US,1594675836
Honningsvåg,25.97,70.98,46.4,87,20,9.17,NO,1594675836
Yulara,130.99,-25.24,37.4,64,0,5.82,AU,1594675837
Herat Province,62.0,34.5,72.99,30,0,8.55,AF,1594675837
Vila,-8.16,42.03,77.0,38,8,20.8,PT,1594675812
Stowe,-75.68,40.25,86.0,48,40,6.93,US,1594675745
Jatai,-51.71,-17.88,76.75,48,81,4.74,BR,1594675838
Belaya Gora,146.42,68.53,67.39,53,100,15.66,RU,1594675838
Katherine,132.27,-14.47,55.4,28,54,8.05,AU,1594675838
Bubaque,-15.83,11.28,80.37,84,100,15.5,GW,1594675838
Igrim,64.42,63.19,49.95,71,36,0.94,RU,1594675839
Aykhal,111.5,66.0,60.8,55,18,4.47,RU,1594675839
Asău,26.4,46.43,51.01,85,0,3.36,RO,1594675839
Vao,167.48,-22.67,72.72,76,100,14.72,NC,1594675839
Berlevåg,29.09,70.86,44.6,87,75,8.05,NO,1594675839
Shimoda,138.95,34.67,68.0,95,100,16.22,JP,1594675840
Lagoa,-27.98,39.05,68.99,82,8,12.84,PT,1594675840
Ukiah,-123.21,39.15,96.8,25,1,4.7,US,1594675840
Moche,-79.01,-8.17,64.74,82,59,9.57,PE,1594675688
Manihāri,87.63,25.35,83.34,83,87,4.25,IN,1594675841
Man,-7.55,7.41,71.19,94,100,3.44,CI,1594675841
George,22.46,-33.96,51.8,53,55,19.46,ZA,1594675841
Safaga,33.94,26.73,87.8,23,0,5.82,EG,1594675841
Muroto-misakicho,134.15,33.28,78.57,90,100,19.6,JP,1594675842
Tupik,119.93,54.43,69.58,63,91,0.36,RU,1594675842
Lodja,23.43,-3.48,71.47,90,93,2.91,CD,1594675842
Tymovskoye,142.66,50.85,58.35,84,99,2.95,RU,1594675842
Te Anau,167.72,-45.42,35.55,87,34,0.65,NZ,1594675842
Marabu,114.01,4.41,75.2,100,40,3.36,MY,1594675843
Kwekwe,29.81,-18.93,50.4,46,0,3.4,ZW,1594675843
Fairmont,-80.14,39.49,79.0,66,61,6.93,US,1594675843
Erenhot,111.98,43.65,70.38,52,0,6.53,CN,1594675843
Broome,-75.83,42.25,78.01,50,20,5.82,US,1594675844
Chapais,-74.85,49.78,75.2,31,1,9.17,CA,1594675844
Los Andes,-70.6,-32.83,69.8,40,13,3.36,CL,1594675844
Shetpe,52.12,44.17,80.51,34,0,6.29,KZ,1594675844
Xining,101.77,36.62,54.9,79,71,1.92,CN,1594675629
Vardø,31.11,70.37,46.4,81,3,4.7,NO,1594675845
Glazov,52.66,58.14,62.67,91,0,5.46,RU,1594675845
Aktash,87.73,50.3,43.2,99,100,3.83,RU,1594675845
Lyantonde,31.16,-0.4,65.68,60,4,1.01,UG,1594675845
Riosucio,-75.7,5.42,80.6,61,40,4.7,CO,1594675846
Necochea,-58.74,-38.55,42.01,85,25,4.0,AR,1594675846
Kapit,112.93,2.02,73.78,95,100,1.21,MY,1594675846
Mossendjo,12.73,-2.95,66.33,94,62,2.55,CG,1594675846
Villa Bruzual,-69.12,9.33,82.78,81,77,2.39,VE,1594675847
Pangnirtung,-65.71,66.15,51.8,76,75,5.21,CA,1594675847
Ambilobe,49.05,-13.2,66.49,79,58,3.02,MG,1594675847
Katobu,122.53,-4.94,74.5,88,30,6.96,ID,1594675847
Lüderitz,15.16,-26.65,57.2,67,0,14.99,NA,1594675848
Yangi Marg`ilon,71.72,40.43,75.2,47,97,4.7,UZ,1594675848
Tacoronte,-16.41,28.48,71.01,88,75,17.22,ES,1594675849
Sabang,95.32,5.89,81.59,77,95,4.85,ID,1594675849
Kalmunai,81.82,7.42,80.65,79,96,6.96,LK,1594675839
Brae,-1.35,60.4,53.6,93,99,13.87,GB,1594675850
Bridlington,-0.19,54.08,60.8,77,77,6.93,GB,1594675850
Alençon,0.08,48.43,71.6,37,83,9.17,FR,1594675850
Grindavik,-22.43,63.84,50.0,81,75,4.7,IS,1594675851
Mbini,9.61,1.57,78.8,88,40,5.82,GQ,1594675851
San Jose,-121.89,37.34,88.0,47,1,11.41,US,1594675779
Saint-Louis,-15.0,16.33,93.2,56,40,4.7,SN,1594675851
Kayerkan,87.76,69.35,53.6,93,75,6.71,RU,1594675852
Dengzhou,120.75,37.81,67.5,83,68,3.47,CN,1594675852
Birobidzhan,132.95,48.8,69.91,94,18,4.25,RU,1594675852
Bilibino,166.44,68.05,62.33,59,59,3.06,RU,1594675852
Ginda,78.49,30.69,63.59,82,1,2.04,IN,1594675852
Sillanwali,72.54,31.83,95.63,34,0,4.43,PK,1594675853
Ellsworth,-68.42,44.54,79.0,65,90,10.29,US,1594675853
Staritsa,34.94,56.51,54.07,95,99,4.07,RU,1594675853
Vung Tau,107.08,10.35,78.71,86,100,7.87,VN,1594675853
Verkhoyansk,133.38,67.54,65.39,61,78,6.15,RU,1594675853
Edd,41.69,13.93,89.2,63,52,7.09,ER,1594675854
Tornio,24.15,65.85,50.0,100,100,3.36,FI,1594675854
Sidi Ali,0.42,36.1,71.65,80,0,8.19,DZ,1594675854
Mikuni,136.15,36.22,69.8,94,75,2.24,JP,1594675854
Thinadhoo,72.93,0.53,84.47,73,56,7.65,MV,1594675855
Siayan,123.1,8.27,75.56,87,99,3.02,PH,1594675855
Chimbote,-78.58,-9.09,64.47,80,18,8.79,PE,1594675856
Verkhniye Kigi,58.6,55.41,61.43,77,1,2.66,RU,1594675856
Bunia,30.25,1.57,63.46,86,72,0.92,CD,1594675856
Nālūt,10.85,30.33,80.87,20,0,10.89,LY,1594675856
Ishigaki,124.16,24.34,84.2,89,75,8.05,JP,1594675857
Avera,-82.53,33.19,93.2,44,40,11.41,US,1594675857
Christchurch,172.63,-43.53,32.0,100,0,1.12,NZ,1594675616
Morant Bay,-76.41,17.88,89.6,70,20,24.16,JM,1594675857
Merritt Island,-80.67,28.54,98.6,39,40,4.7,US,1594675721
Marawi,124.29,8.0,73.99,94,76,3.0,PH,1594675858
Kumertau,55.78,52.77,66.58,87,100,3.53,RU,1594675858
Roald,6.13,62.58,55.4,82,100,11.41,NO,1594675858
Ambulu,113.61,-8.35,73.42,91,11,1.86,ID,1594675858
Kendari,122.5,-3.94,73.63,91,69,2.64,ID,1594675859
Kapustin Yar,45.74,48.58,81.61,31,83,11.03,RU,1594675859
Kysyl-Syr,122.76,63.9,68.88,61,34,3.36,RU,1594675859
Margate,1.39,51.38,66.0,59,100,5.32,GB,1594675811
Lipin Bor,37.98,60.26,55.8,97,100,8.1,RU,1594675859
Aljezur,-8.8,37.32,82.99,49,0,10.47,PT,1594675860
Betioky,44.38,-23.72,58.15,93,0,2.24,MG,1594675860
Plettenberg Bay,23.37,-34.05,52.75,57,54,19.3,ZA,1594675860
Constitución,-72.42,-35.33,55.78,79,17,7.02,CL,1594675832
Uzhur,89.83,55.3,55.94,86,75,3.09,RU,1594675860
Xinmin,122.83,41.99,69.8,94,20,4.47,CN,1594675861
Njombe,34.77,-9.33,47.64,88,4,5.44,TZ,1594675861
Baykit,96.37,61.67,60.31,74,51,1.95,RU,1594675861
Raja,25.68,8.46,71.74,92,87,2.48,SS,1594675862
Zyryanka,150.85,65.75,70.57,51,44,2.48,RU,1594675862
Krasnosel'kup,82.47,65.7,51.44,88,83,17.31,RU,1594675862
Dondo,34.74,-19.61,59.0,87,0,6.93,MZ,1594675862
Yershov,48.28,51.35,81.45,26,0,14.34,RU,1594675863
Brownfield,-102.27,33.18,109.0,12,4,7.0,US,1594675863
Kardymovo,32.43,54.89,50.95,96,91,3.51,RU,1594675863
Tuy Hoa,109.3,13.08,76.93,87,52,6.96,VN,1594675813
Baraki Barak,68.95,33.97,66.15,50,0,0.96,AF,1594675864
Honolulu,-157.86,21.31,84.2,48,75,13.87,US,1594675676
Aksarka,67.8,66.56,48.34,81,31,13.31,RU,1594675864
Esim,-2.24,4.87,75.43,84,36,12.15,GH,1594675864
Ladário,-57.6,-19.0,89.6,49,20,6.93,BR,1594675864
Belgrade,20.47,44.8,62.6,55,1,3.36,RS,1594675660
Dingle,122.67,11.0,77.04,88,100,1.03,PH,1594675865
Madera,-119.83,37.17,102.99,13,0,3.0,US,1594675865
Lamu,40.9,-2.27,76.77,81,19,15.7,KE,1594675865
Pavlivka,28.46,49.44,50.94,86,0,9.98,UA,1594675866
Acaraú,-40.12,-2.89,77.76,71,44,14.05,BR,1594675866
Banda Aceh,95.32,5.56,78.85,81,98,4.88,ID,1594675866
Tessalit,1.01,20.2,95.61,10,0,4.47,ML,1594675866
Benjamin Constant,-70.03,-4.38,89.6,66,20,4.7,BR,1594675866
Tres Picos,-93.53,15.87,86.52,67,35,4.74,MX,1594675867
Kostomuksha,30.58,64.57,49.51,93,3,4.18,RU,1594675867
Bang Rakam,100.12,16.76,76.03,94,99,2.42,TH,1594675867
Pangody,74.49,65.85,47.14,79,91,12.01,RU,1594675867
Abhā,42.51,18.22,75.2,49,58,6.93,SA,1594675867
Grand-Santi,-54.38,4.25,75.61,91,0,1.16,GF,1594675868
Wanaka,169.15,-44.7,36.72,77,0,0.94,NZ,1594675868
Kotka,26.95,60.47,51.8,93,0,2.24,FI,1594675868
Adré,22.2,13.47,82.53,50,1,10.69,TD,1594675868
Caraballeda,-66.85,10.61,79.0,71,35,10.58,VE,1594675869
Polewali,119.34,-3.43,75.0,82,45,3.02,ID,1594675869
Teguise,-13.56,29.06,71.6,78,20,16.11,ES,1594675869
Lebu,-73.65,-37.62,48.88,74,0,4.09,CL,1594675869
Ixtapa,-105.2,20.7,88.0,70,40,11.41,MX,1594675870
Edgewater,-80.9,28.99,91.4,55,40,9.17,US,1594675870
Kolokani,-8.03,13.57,72.43,92,100,7.9,ML,1594675870
Kirn,7.45,49.78,66.2,42,47,4.7,DE,1594675870
Lufilufi,-171.6,-13.87,82.4,88,75,3.36,WS,1594675870
Olonets,32.97,60.98,50.76,75,81,0.69,RU,1594675871
Alyangula,136.42,-13.85,66.2,63,32,4.7,AU,1594675871
Bereda,-7.54,43.27,62.01,77,22,8.99,ES,1594675871
Adrar,-10.07,20.5,99.0,12,36,3.71,MR,1594675871
Lorengau,147.27,-2.02,81.68,75,76,3.29,PG,1594675871
Mitsamiouli,43.28,-11.38,77.23,74,1,8.43,KM,1594675872
Touros,-35.46,-5.2,75.2,73,0,4.7,BR,1594675872
Mocuba,36.99,-16.84,58.53,87,0,1.07,MZ,1594675872
Sur,59.53,22.57,83.52,71,0,13.31,OM,1594675841
Ruteng,120.47,-8.61,59.81,100,23,1.95,ID,1594675872
Havre-St-Pierre,-63.6,50.23,55.4,87,90,12.75,CA,1594675833
Griffith,-87.42,41.53,81.0,50,1,5.82,US,1594675807
Khuzdar,66.64,27.74,78.49,40,0,3.15,PK,1594675816
Bandarbeyla,50.81,9.49,78.39,75,42,30.09,SO,1594675873
Porto Nacional,-48.42,-10.71,87.8,45,15,4.7,BR,1594675874
Burla,83.87,21.5,79.52,87,100,5.57,IN,1594675874
Makungu,35.28,-8.73,55.87,77,1,2.98,TZ,1594675874
Umm Hājar,19.7,13.3,89.92,43,0,7.36,TD,1594675875
Tarakan,117.63,3.3,78.39,85,91,6.17,ID,1594675875
Beringovskiy,179.32,63.05,49.51,91,100,4.38,RU,1594675875
Departamento de Maldonado,-54.92,-34.67,48.0,70,20,16.11,UY,1594675875
Saldanha,17.94,-33.01,50.0,87,95,3.36,ZA,1594675876
Zhigansk,123.37,66.77,62.08,76,2,3.67,RU,1594675876
Red Bluff,-122.24,40.18,100.0,16,1,13.87,US,1594675813
Sassandra,-6.08,4.95,75.18,83,100,9.6,CI,1594675876
Queanbeyan,149.23,-35.35,46.99,81,75,9.17,AU,1594675769
Graaff-Reinet,24.53,-32.25,51.01,45,7,1.01,ZA,1594675877
Caohai,104.28,26.87,56.66,98,99,7.02,CN,1594675877
Jalingo,11.37,8.88,76.46,86,75,4.07,NG,1594675877
Portland,-122.68,45.52,79.0,38,20,9.17,US,1594675592
La Rochelle,-1.15,46.17,68.0,60,100,11.41,FR,1594675878
Zamora,-78.96,-4.07,71.98,71,99,2.06,EC,1594675878
Okha,142.95,53.57,52.38,92,100,4.0,RU,1594675878
Caravelas,-39.25,-17.71,71.83,89,1,4.88,BR,1594675878
Sakaiminato,133.23,35.55,73.4,94,75,17.22,JP,1594675879
Ayan,138.17,56.45,57.42,82,0,10.11,RU,1594675879
Businga,20.88,3.33,71.15,93,100,1.88,CD,1594675879
Kloulklubed,134.26,7.04,77.0,88,75,4.7,PW,1594675879
Tres Arroyos,-60.28,-38.37,37.65,72,0,9.84,AR,1594675879
Poum,164.02,-20.23,73.38,77,100,20.13,NC,1594675880
Indramayu,108.32,-6.33,78.01,83,6,8.16,ID,1594675880
Ballina,153.57,-28.87,50.0,66,0,12.75,AU,1594675880
Mporokoso,30.12,-9.37,59.41,60,0,7.45,ZM,1594675880
Vestmannaeyjar,-20.27,63.44,51.96,84,100,5.06,IS,1594675880
Pundaguitan,126.17,6.37,83.21,70,95,2.89,PH,1594675881
Pleshanovo,53.48,52.83,73.02,68,61,11.99,RU,1594675881
